source_timestamp,destination_timestamp,x,y,z,roll,pitch,yaw,source_radar_timestamp,destination_radar_timestamp
1547556758975712,1547556758728002,0.000128,0.000202,-0.000000,-0.000000,-0.000000,-0.000023,1547556758854732,1547556758609011
1547556759225463,1547556758975712,0.000101,0.000115,-0.000000,0.000000,0.000000,-0.000018,1547556759104383,1547556758854732
1547556759475574,1547556759225463,-0.000141,-0.000534,-0.000000,0.000000,0.000000,0.000068,1547556759354402,1547556759104383
1547556759725586,1547556759475574,0.000255,0.000782,-0.000000,0.000000,-0.000000,-0.000064,1547556759604563,1547556759354402
1547556759975922,1547556759725586,0.000100,-0.000224,-0.000000,-0.000000,-0.000000,0.000034,1547556759854431,1547556759604563
1547556760227075,1547556759975922,0.000122,-0.000306,-0.000000,-0.000000,0.000000,0.000040,1547556760105234,1547556759854431
1547556760478866,1547556760227075,0.000256,0.000332,-0.000000,-0.000000,-0.000000,-0.000022,1547556760356872,1547556760105234
1547556760730505,1547556760478866,0.000243,0.000277,-0.000000,0.000000,0.000000,-0.000017,1547556760608821,1547556760356872
1547556760981262,1547556760730505,0.000003,-0.000130,-0.000000,-0.000000,0.000000,-0.000002,1547556760860166,1547556760608821
1547556761231535,1547556760981262,-0.000042,-0.000203,-0.000000,0.000000,-0.000000,0.000003,1547556761110125,1547556760860166
1547556761482227,1547556761231535,0.000029,-0.000176,-0.000000,0.000000,-0.000000,0.000004,1547556761360688,1547556761110125
1547556761732704,1547556761482227,0.000006,-0.000173,-0.000000,-0.000000,-0.000000,0.000006,1547556761611623,1547556761360688
1547556761982452,1547556761732704,-0.000097,-0.000212,-0.000000,0.000000,-0.000000,0.000005,1547556761861437,1547556761611623
1547556762231938,1547556761982452,-0.000066,-0.000195,-0.000000,-0.000000,-0.000000,0.000009,1547556762111037,1547556761861437
1547556762481447,1547556762231938,-0.000039,-0.000174,-0.000000,0.000000,0.000000,0.000004,1547556762360661,1547556762111037
1547556762730949,1547556762481447,0.000015,-0.000139,-0.000000,-0.000000,0.000000,0.000005,1547556762610140,1547556762360661
1547556762980029,1547556762730949,0.000098,-0.000157,-0.000000,0.000000,-0.000000,-0.000009,1547556762859497,1547556762610140
1547556763229410,1547556762980029,0.000060,-0.000164,-0.000000,0.000000,0.000000,0.000000,1547556763108501,1547556762859497
1547556763477189,1547556763229410,-0.000093,-0.000099,-0.000000,-0.000000,0.000000,0.000056,1547556763357085,1547556763108501
1547556763725574,1547556763477189,-0.000058,0.000473,-0.000000,0.000000,0.000000,-0.000031,1547556763605140,1547556763357085
1547556763975317,1547556763725574,0.000159,0.000090,-0.000000,-0.000000,-0.000000,-0.000043,1547556763853788,1547556763605140
1547556764226348,1547556763975317,0.000078,-0.000633,-0.000000,0.000000,0.000000,-0.000005,1547556764104839,1547556763853788
1547556764476618,1547556764226348,-0.000407,-0.000387,-0.000000,0.000000,-0.000000,0.000057,1547556764355517,1547556764104839
1547556764726545,1547556764476618,-0.000465,0.000793,0.000000,0.000000,-0.000000,-0.000009,1547556764605470,1547556764355517
1547556764976493,1547556764726545,-0.000504,-0.000145,0.000000,-0.000000,0.000000,0.000046,1547556764855404,1547556764605470
1547556765226701,1547556764976493,-0.000170,-0.000301,-0.000000,0.000000,0.000000,0.000031,1547556765105373,1547556764855404
1547556765476893,1547556765226701,-0.000075,0.000228,-0.000000,-0.000000,0.000000,-0.000030,1547556765355495,1547556765105373
1547556765728198,1547556765476893,-0.000042,0.000389,-0.000000,-0.000000,0.000000,-0.000006,1547556765606073,1547556765355495
1547556765980133,1547556765728198,-0.000002,0.000082,-0.000000,0.000000,0.000000,-0.000046,1547556765858249,1547556765606073
1547556766231831,1547556765980133,-0.000057,-0.000435,-0.000000,-0.000000,-0.000000,0.000022,1547556766109893,1547556765858249
1547556766483388,1547556766231831,0.000170,-0.000526,-0.000000,0.000000,-0.000000,0.000069,1547556766361809,1547556766109893
1547556766733746,1547556766483388,0.000298,-0.000239,-0.000000,-0.000000,-0.000000,0.000050,1547556766612672,1547556766361809
1547556766983870,1547556766733746,0.000366,0.000355,0.000000,0.000000,-0.000000,-0.000128,1547556766862605,1547556766612672
1547556767234311,1547556766983870,0.000363,-0.000169,-0.000000,0.000000,-0.000000,0.000024,1547556767113081,1547556766862605
1547556767484496,1547556767234311,0.000354,-0.000146,-0.000000,0.000000,0.000000,0.000027,1547556767363530,1547556767113081
1547556767734181,1547556767484496,-0.000140,-0.000115,-0.000000,0.000000,-0.000000,0.000023,1547556767613243,1547556767363530
1547556767983531,1547556767734181,-0.000022,0.000022,-0.000000,-0.000000,-0.000000,-0.000005,1547556767862878,1547556767613243
1547556768232558,1547556767983531,0.000088,0.000526,-0.000000,-0.000000,0.000000,-0.000074,1547556768111886,1547556767862878
1547556768481557,1547556768232558,-0.000041,0.000054,-0.000000,-0.000000,-0.000000,-0.000039,1547556768360945,1547556768111886
1547556768730470,1547556768481557,-0.000004,-0.000106,-0.000000,-0.000000,-0.000000,0.000015,1547556768610008,1547556768360945
1547556768979233,1547556768730470,-0.000282,-0.000086,-0.000000,0.000000,-0.000000,0.000017,1547556768858963,1547556768610008
1547556769227916,1547556768979233,-0.000022,0.000068,-0.000000,0.000000,-0.000000,-0.000008,1547556769107258,1547556768858963
1547556769477078,1547556769227916,-0.000180,0.000074,-0.000000,-0.000000,-0.000000,-0.000012,1547556769355916,1547556769107258
1547556769727534,1547556769477078,-0.000210,0.000055,-0.000000,0.000000,-0.000000,-0.000004,1547556769606166,1547556769355916
1547556769977648,1547556769727534,-0.000217,0.000151,-0.000000,-0.000000,-0.000000,-0.000021,1547556769856712,1547556769606166
1547556770227476,1547556769977648,-0.000146,0.000101,-0.000000,-0.000000,-0.000000,-0.000017,1547556770106504,1547556769856712
1547556770477307,1547556770227476,-0.000177,0.000100,-0.000000,-0.000000,-0.000000,-0.000012,1547556770356300,1547556770106504
1547556770727246,1547556770477307,-0.000202,0.000125,-0.000000,-0.000000,0.000000,-0.000014,1547556770606096,1547556770356300
1547556770977125,1547556770727246,-0.000383,0.000163,-0.000000,0.000000,-0.000000,-0.000038,1547556770856160,1547556770606096
1547556771227472,1547556770977125,-0.000190,0.000011,-0.000000,-0.000000,-0.000000,0.000006,1547556771105875,1547556770856160
1547556771478496,1547556771227472,-0.000252,0.000109,-0.000000,-0.000000,0.000000,-0.000015,1547556771356418,1547556771105875
1547556771730200,1547556771478496,-0.000221,0.000085,-0.000000,0.000000,-0.000000,-0.000016,1547556771608264,1547556771356418
1547556771981959,1547556771730200,-0.000159,0.000059,-0.000000,-0.000000,0.000000,0.000000,1547556771860229,1547556771608264
1547556772232970,1547556771981959,-0.000315,0.000094,-0.000000,-0.000000,-0.000000,-0.000020,1547556772111332,1547556771860229
1547556772483773,1547556772232970,-0.000131,0.000078,-0.000000,-0.000000,-0.000000,0.000005,1547556772362395,1547556772111332
1547556772734133,1547556772483773,-0.000165,0.000064,-0.000000,-0.000000,0.000000,-0.000010,1547556772612807,1547556772362395
1547556772984647,1547556772734133,-0.000405,0.000028,-0.000000,0.000000,-0.000000,-0.000001,1547556772863339,1547556772612807
1547556773234629,1547556772984647,-0.001186,-0.000564,-0.000000,0.000000,0.000000,0.000053,1547556773113764,1547556772863339
1547556773484219,1547556773234629,-0.001144,-0.000474,-0.000000,0.000000,0.000000,0.000053,1547556773363433,1547556773113764
1547556773733682,1547556773484219,-0.001279,-0.000634,-0.000000,-0.000000,0.000000,0.000070,1547556773612828,1547556773363433
1547556773982820,1547556773733682,-0.001238,-0.000508,-0.000000,-0.000000,-0.000000,0.000047,1547556773862397,1547556773612828
1547556774231592,1547556773982820,-0.001504,-0.000474,-0.000000,-0.000000,-0.000000,0.000096,1547556774110883,1547556773862397
1547556774480598,1547556774231592,-0.002587,0.000430,-0.000000,-0.000000,-0.000000,0.000102,1547556774359967,1547556774110883
1547556774729064,1547556774480598,-0.002439,0.000318,-0.000000,0.000000,-0.000000,0.000118,1547556774608873,1547556774359967
1547556774977689,1547556774729064,-0.002519,0.000374,-0.000000,0.000000,-0.000000,0.000116,1547556774857151,1547556774608873
1547556775228098,1547556774977689,-0.002449,0.000421,-0.000000,-0.000000,-0.000000,0.000108,1547556775106156,1547556774857151
1547556775478509,1547556775228098,-0.002458,0.000308,-0.000000,-0.000000,-0.000000,0.000125,1547556775357187,1547556775106156
1547556775728490,1547556775478509,-0.002326,0.000417,0.000000,-0.000000,0.000000,0.000102,1547556775607518,1547556775357187
1547556775978075,1547556775728490,-0.002382,0.000374,-0.000000,0.000000,-0.000000,0.000122,1547556775857187,1547556775607518
1547556776227874,1547556775978075,-0.002470,0.000422,-0.000000,-0.000000,-0.000000,0.000131,1547556776106858,1547556775857187
1547556776478306,1547556776227874,0.001585,0.000313,-0.000000,0.000000,-0.000000,0.000259,1547556776356706,1547556776106858
1547556776729523,1547556776478306,0.028479,0.002059,-0.000000,-0.000000,0.000000,0.000558,1547556776607714,1547556776356706
1547556776981077,1547556776729523,0.018263,-0.003337,-0.000000,0.000000,0.000000,0.001711,1547556776859389,1547556776607714
1547556777232484,1547556776981077,0.086125,-0.000076,-0.000000,-0.000000,-0.000000,0.004234,1547556777110832,1547556776859389
1547556777482963,1547556777232484,0.200580,0.006180,-0.000000,0.000000,-0.000000,0.008049,1547556777361760,1547556777110832
1547556777733021,1547556777482963,0.281393,0.010581,-0.000000,0.000000,0.000000,0.012651,1547556777612150,1547556777361760
1547556777983258,1547556777733021,0.366150,0.013643,-0.000000,0.000000,-0.000000,0.015602,1547556777861769,1547556777612150
1547556778233382,1547556777983258,0.473187,0.016164,0.000000,0.000000,0.000000,0.015831,1547556778112368,1547556777861769
1547556778483393,1547556778233382,0.602845,0.019772,-0.000000,-0.000000,0.000000,0.022139,1547556778362383,1547556778112368
1547556778732802,1547556778483393,0.728680,0.019624,-0.000000,0.000000,-0.000000,0.018244,1547556778612117,1547556778362383
1547556778982452,1547556778732802,0.856963,0.011284,-0.000000,-0.000000,-0.000000,0.012858,1547556778861548,1547556778612117
1547556779231709,1547556778982452,0.970207,0.004787,-0.000000,-0.000000,0.000000,0.008462,1547556779111218,1547556778861548
1547556779480550,1547556779231709,1.091722,-0.000940,-0.000000,0.000000,0.000000,0.004054,1547556779360022,1547556779111218
1547556779729220,1547556779480550,1.208988,-0.009513,-0.000000,-0.000000,-0.000000,-0.002696,1547556779608780,1547556779360022
1547556779977622,1547556779729220,1.320496,-0.015439,-0.000000,-0.000000,-0.000000,-0.002506,1547556779857300,1547556779608780
1547556780226013,1547556779977622,1.434740,-0.013436,-0.000000,-0.000000,-0.000000,-0.002307,1547556780105666,1547556779857300
1547556780475729,1547556780226013,1.546606,-0.014584,-0.000000,-0.000000,-0.000000,-0.002318,1547556780354387,1547556780105666
1547556780725794,1547556780475729,1.661326,-0.024030,-0.000000,-0.000000,0.000000,-0.002855,1547556780604656,1547556780354387
1547556780975845,1547556780725794,1.734412,-0.018154,-0.000000,-0.000000,-0.000000,-0.003269,1547556780854772,1547556780604656
1547556781225453,1547556780975845,1.812797,-0.019341,-0.000000,-0.000000,-0.000000,-0.004888,1547556781104579,1547556780854772
1547556781475203,1547556781225453,1.898911,-0.028051,-0.000000,-0.000000,-0.000000,-0.005768,1547556781354093,1547556781104579
1547556781725127,1547556781475203,1.953834,-0.029551,-0.000000,0.000000,-0.000000,-0.007189,1547556781604026,1547556781354093
1547556781975035,1547556781725127,2.010162,-0.023642,-0.000000,0.000000,0.000000,-0.007110,1547556781854135,1547556781604026
1547556782224371,1547556781975035,2.045140,-0.028238,-0.000000,0.000000,-0.000000,-0.005870,1547556782103686,1547556781854135
1547556782473946,1547556782224371,2.092769,-0.027188,-0.000000,0.000000,-0.000000,-0.009320,1547556782352974,1547556782103686
1547556782723600,1547556782473946,2.133442,-0.028021,-0.000000,0.000000,-0.000000,-0.008687,1547556782602532,1547556782352974
1547556782973908,1547556782723600,2.209192,-0.027739,-0.000000,0.000000,-0.000000,-0.008050,1547556782852449,1547556782602532
1547556783225278,1547556782973908,2.276866,-0.030887,-0.000000,0.000000,-0.000000,-0.006424,1547556783103199,1547556782852449
1547556783476872,1547556783225278,2.244383,-0.027381,-0.000000,-0.000000,0.000000,-0.005765,1547556783355309,1547556783103199
1547556783728124,1547556783476872,2.216478,-0.020331,-0.000000,0.000000,0.000000,-0.005920,1547556783606302,1547556783355309
1547556783979086,1547556783728124,2.217898,-0.021469,-0.000000,-0.000000,0.000000,-0.001907,1547556783857867,1547556783606302
1547556784229380,1547556783979086,2.263615,-0.021170,-0.000000,-0.000000,-0.000000,-0.002474,1547556784108276,1547556783857867
1547556784479805,1547556784229380,2.276879,-0.018633,-0.000000,-0.000000,-0.000000,-0.002315,1547556784358447,1547556784108276
1547556784729746,1547556784479805,2.273109,-0.017905,-0.000000,-0.000000,-0.000000,-0.001339,1547556784609012,1547556784358447
1547556784979295,1547556784729746,2.288446,-0.009742,-0.000000,0.000000,-0.000000,0.000270,1547556784858394,1547556784609012
1547556785229003,1547556784979295,2.300185,-0.009701,-0.000000,-0.000000,-0.000000,-0.000862,1547556785107963,1547556784858394
1547556785477286,1547556785229003,2.321880,-0.017544,-0.000000,-0.000000,-0.000000,0.000405,1547556785357029,1547556785107963
1547556785725901,1547556785477286,2.330075,-0.013754,-0.000000,-0.000000,-0.000000,-0.000494,1547556785605207,1547556785357029
1547556785974962,1547556785725901,2.337167,-0.012992,-0.000000,-0.000000,-0.000000,0.000323,1547556785854366,1547556785605207
1547556786223365,1547556785974962,2.346668,-0.009799,-0.000000,0.000000,-0.000000,-0.000829,1547556786103315,1547556785854366
1547556786472108,1547556786223365,2.360360,-0.007787,-0.000000,-0.000000,0.000000,-0.001331,1547556786351296,1547556786103315
1547556786722324,1547556786472108,2.369537,-0.006902,-0.000000,0.000000,-0.000000,-0.000206,1547556786600783,1547556786351296
1547556786972699,1547556786722324,2.328458,-0.011468,-0.000000,-0.000000,0.000000,-0.001416,1547556786851665,1547556786600783
1547556787222379,1547556786972699,2.305691,-0.006165,-0.000000,-0.000000,-0.000000,-0.000665,1547556787101671,1547556786851665
1547556787472034,1547556787222379,2.299530,-0.005072,-0.000000,-0.000000,0.000000,-0.002603,1547556787350929,1547556787101671
1547556787722901,1547556787472034,2.289543,-0.010577,-0.000000,0.000000,-0.000000,-0.000398,1547556787601031,1547556787350929
1547556787974679,1547556787722901,2.282912,-0.013587,-0.000000,0.000000,-0.000000,-0.002168,1547556787852831,1547556787601031
1547556788226016,1547556787974679,2.236122,-0.015884,-0.000000,0.000000,0.000000,-0.001551,1547556788104447,1547556787852831
1547556788476593,1547556788226016,2.221072,-0.010480,-0.000000,0.000000,0.000000,-0.002082,1547556788355237,1547556788104447
1547556788727227,1547556788476593,2.222007,-0.011842,-0.000000,0.000000,0.000000,-0.003958,1547556788605701,1547556788355237
1547556788977801,1547556788727227,2.215413,-0.012077,-0.000000,0.000000,-0.000000,-0.003188,1547556788856547,1547556788605701
1547556789227872,1547556788977801,2.214913,-0.012958,-0.000000,-0.000000,0.000000,-0.003256,1547556789106724,1547556788856547
1547556789477294,1547556789227872,2.156131,-0.010133,-0.000000,0.000000,0.000000,-0.000630,1547556789356112,1547556789106724
1547556789726941,1547556789477294,2.174704,-0.007726,-0.000000,0.000000,-0.000000,0.001234,1547556789606309,1547556789356112
1547556789975941,1547556789726941,2.194649,0.000789,-0.000000,0.000000,0.000000,0.004718,1547556789855324,1547556789606309
1547556790224687,1547556789975941,2.239432,-0.000514,-0.000000,-0.000000,0.000000,0.006803,1547556790104318,1547556789855324
1547556790473285,1547556790224687,2.305345,0.006641,-0.000000,-0.000000,-0.000000,0.008651,1547556790352800,1547556790104318
1547556790721713,1547556790473285,2.312251,0.006635,-0.000000,-0.000000,-0.000000,0.011692,1547556790601441,1547556790352800
1547556790970312,1547556790721713,2.326103,0.004915,-0.000000,0.000000,-0.000000,0.013032,1547556790849636,1547556790601441
1547556791219755,1547556790970312,2.343172,0.011025,-0.000000,0.000000,-0.000000,0.013989,1547556791098841,1547556790849636
1547556791470065,1547556791219755,2.374917,0.012393,-0.000000,0.000000,-0.000000,0.011737,1547556791348633,1547556791098841
1547556791720217,1547556791470065,2.347506,0.004462,-0.000000,-0.000000,-0.000000,0.004833,1547556791599339,1547556791348633
1547556791970103,1547556791720217,2.320034,-0.008215,-0.000000,-0.000000,-0.000000,0.003866,1547556791849152,1547556791599339
1547556792219894,1547556791970103,2.329364,-0.001620,-0.000000,-0.000000,-0.000000,0.002267,1547556792098919,1547556791849152
1547556792469676,1547556792219894,2.375151,-0.018854,-0.000000,0.000000,-0.000000,0.000761,1547556792348717,1547556792098919
1547556792719293,1547556792469676,2.345766,-0.011312,-0.000000,-0.000000,-0.000000,-0.001535,1547556792598300,1547556792348717
1547556792969046,1547556792719293,2.375965,-0.029273,-0.000000,0.000000,0.000000,-0.009301,1547556792847950,1547556792598300
1547556793218897,1547556792969046,2.429839,-0.038360,-0.000000,-0.000000,-0.000000,-0.010764,1547556793097883,1547556792847950
1547556793468628,1547556793218897,2.443628,-0.026343,-0.000000,-0.000000,-0.000000,-0.011137,1547556793347899,1547556793097883
1547556793720538,1547556793468628,2.483283,-0.017553,-0.000000,-0.000000,-0.000000,-0.008868,1547556793597371,1547556793347899
1547556793971477,1547556793720538,2.443482,-0.016527,-0.000000,-0.000000,-0.000000,-0.006616,1547556793849424,1547556793597371
1547556794223320,1547556793971477,2.448082,-0.007330,-0.000000,-0.000000,-0.000000,-0.005532,1547556794101479,1547556793849424
1547556794474303,1547556794223320,2.525568,-0.015113,-0.000000,0.000000,0.000000,-0.004110,1547556794352931,1547556794101479
1547556794724906,1547556794474303,2.634397,-0.008047,-0.000000,0.000000,0.000000,-0.003340,1547556794603488,1547556794352931
1547556794975461,1547556794724906,2.662765,-0.017996,-0.000000,0.000000,-0.000000,-0.001198,1547556794854108,1547556794603488
1547556795225708,1547556794975461,2.639538,-0.002885,-0.000000,-0.000000,0.000000,0.000225,1547556795104448,1547556794854108
1547556795475553,1547556795225708,2.608986,-0.005503,-0.000000,0.000000,-0.000000,-0.000010,1547556795354823,1547556795104448
1547556795725886,1547556795475553,2.547580,-0.009346,-0.000000,-0.000000,-0.000000,-0.000280,1547556795604179,1547556795354823
1547556795974870,1547556795725886,2.522611,-0.005408,-0.000000,0.000000,-0.000000,0.000121,1547556795853915,1547556795604179
1547556796224106,1547556795974870,2.492831,0.000608,-0.000000,-0.000000,0.000000,0.001230,1547556796103630,1547556795853915
1547556796473023,1547556796224106,2.525916,-0.003692,-0.000000,-0.000000,0.000000,0.002087,1547556796352384,1547556796103630
1547556796721814,1547556796473023,2.451090,-0.000212,-0.000000,0.000000,-0.000000,0.002907,1547556796601407,1547556796352384
1547556796970291,1547556796721814,2.447352,-0.004340,-0.000000,-0.000000,-0.000000,0.002602,1547556796850085,1547556796601407
1547556797219066,1547556796970291,2.518312,-0.000702,-0.000000,0.000000,0.000000,0.001140,1547556797098445,1547556796850085
1547556797469190,1547556797219066,2.562227,-0.009450,0.000000,0.000000,0.000000,0.001708,1547556797347810,1547556797098445
1547556797719686,1547556797469190,2.557919,-0.005990,-0.000000,0.000000,0.000000,0.001890,1547556797598478,1547556797347810
1547556797969798,1547556797719686,2.545037,-0.011114,-0.000000,-0.000000,-0.000000,0.002751,1547556797848590,1547556797598478
1547556798219852,1547556797969798,2.535416,0.002350,-0.000000,0.000000,0.000000,0.002297,1547556798098880,1547556797848590
1547556798469646,1547556798219852,2.366346,-0.013489,-0.000000,-0.000000,0.000000,0.000584,1547556798348511,1547556798098880
1547556798719405,1547556798469646,2.470125,-0.001974,-0.000000,0.000000,0.000000,-0.000266,1547556798598465,1547556798348511
1547556798969107,1547556798719405,2.563432,-0.010615,-0.000000,0.000000,-0.000000,0.000181,1547556798848184,1547556798598465
1547556799219550,1547556798969107,2.557367,-0.012194,-0.000000,-0.000000,0.000000,0.000520,1547556799097945,1547556798848184
1547556799471169,1547556799219550,2.550273,-0.011476,-0.000000,-0.000000,-0.000000,-0.000278,1547556799349006,1547556799097945
1547556799723030,1547556799471169,2.509192,-0.012035,-0.000000,0.000000,-0.000000,0.000191,1547556799601304,1547556799349006
1547556799974112,1547556799723030,2.501390,-0.007911,-0.000000,0.000000,-0.000000,-0.000150,1547556799852693,1547556799601304
1547556800224786,1547556799974112,2.473206,-0.011437,-0.000000,-0.000000,0.000000,-0.000159,1547556800103293,1547556799852693
1547556800475097,1547556800224786,2.455107,-0.022710,-0.000000,-0.000000,-0.000000,0.000541,1547556800354140,1547556800103293
1547556800724973,1547556800475097,2.465466,-0.015439,-0.000000,0.000000,0.000000,0.000535,1547556800603933,1547556800354140
1547556800975008,1547556800724973,2.476024,-0.009172,-0.000000,0.000000,-0.000000,0.000508,1547556800853724,1547556800603933
1547556801224809,1547556800975008,2.470552,-0.005526,-0.000000,0.000000,-0.000000,0.000414,1547556801104054,1547556800853724
1547556801474197,1547556801224809,2.466525,-0.007016,-0.000000,0.000000,-0.000000,0.000803,1547556801353376,1547556801104054
1547556801723734,1547556801474197,2.463125,-0.004851,-0.000000,-0.000000,0.000000,0.001586,1547556801602853,1547556801353376
1547556801972760,1547556801723734,2.457879,-0.002132,-0.000000,-0.000000,-0.000000,0.001529,1547556801852423,1547556801602853
1547556802221542,1547556801972760,2.453158,-0.001871,-0.000000,0.000000,0.000000,0.003610,1547556802101006,1547556801852423
1547556802470436,1547556802221542,2.423281,0.005727,-0.000000,0.000000,0.000000,0.004978,1547556802349808,1547556802101006
1547556802719691,1547556802470436,2.412198,0.006095,-0.000000,0.000000,-0.000000,0.005421,1547556802598842,1547556802349808
1547556802970395,1547556802719691,2.434531,0.012267,-0.000000,-0.000000,-0.000000,0.009728,1547556802848337,1547556802598842
1547556803220102,1547556802970395,2.433653,0.010727,-0.000000,-0.000000,-0.000000,0.009816,1547556803099232,1547556802848337
1547556803469364,1547556803220102,2.420718,0.016730,-0.000000,-0.000000,-0.000000,0.008764,1547556803348921,1547556803099232
1547556803718896,1547556803469364,2.429794,0.007678,-0.000000,-0.000000,0.000000,0.006961,1547556803597552,1547556803348921
1547556803969666,1547556803718896,2.383379,0.006877,-0.000000,-0.000000,-0.000000,0.006873,1547556803847943,1547556803597552
1547556804221393,1547556803969666,2.280950,0.006996,-0.000000,0.000000,-0.000000,0.006702,1547556804099410,1547556803847943
1547556804472968,1547556804221393,2.292301,0.006912,-0.000000,-0.000000,-0.000000,0.007914,1547556804351171,1547556804099410
1547556804723730,1547556804472968,2.416541,0.005245,-0.000000,-0.000000,-0.000000,0.005734,1547556804602763,1547556804351171
1547556804973793,1547556804723730,2.435252,0.001382,-0.000000,-0.000000,-0.000000,0.004029,1547556804852627,1547556804602763
1547556805224425,1547556804973793,2.410600,0.002094,-0.000000,-0.000000,-0.000000,0.002811,1547556805102861,1547556804852627
1547556805474650,1547556805224425,2.400570,0.000919,-0.000000,-0.000000,0.000000,0.001891,1547556805353758,1547556805102861
1547556805723779,1547556805474650,2.397601,0.001296,-0.000000,0.000000,-0.000000,0.003261,1547556805603367,1547556805353758
1547556805973063,1547556805723779,2.412742,0.000337,-0.000000,-0.000000,-0.000000,0.002573,1547556805852132,1547556805603367
1547556806222751,1547556805973063,2.440420,-0.002788,-0.000000,0.000000,-0.000000,0.002589,1547556806101871,1547556805852132
1547556806471831,1547556806222751,2.435801,0.003900,-0.000000,0.000000,-0.000000,0.003502,1547556806351489,1547556806101871
1547556806720808,1547556806471831,2.433606,0.001646,-0.000000,0.000000,-0.000000,0.005804,1547556806600111,1547556806351489
1547556806969695,1547556806720808,2.427664,0.003961,-0.000000,-0.000000,-0.000000,0.006141,1547556806849379,1547556806600111
1547556807217860,1547556806969695,2.422134,0.004899,0.000000,-0.000000,-0.000000,0.006803,1547556807097638,1547556806849379
1547556807466781,1547556807217860,2.445951,0.005370,-0.000000,0.000000,-0.000000,0.005865,1547556807345820,1547556807097638
1547556807716947,1547556807466781,2.450692,0.002078,-0.000000,0.000000,0.000000,0.006779,1547556807595547,1547556807345820
1547556807967188,1547556807716947,2.426477,0.006458,-0.000000,-0.000000,0.000000,0.006328,1547556807846135,1547556807595547
1547556808216961,1547556807967188,2.359007,0.004719,-0.000000,-0.000000,0.000000,0.004611,1547556808095933,1547556807846135
1547556808466515,1547556808216961,2.359310,0.003294,-0.000000,-0.000000,0.000000,0.003794,1547556808345720,1547556808095933
1547556808716340,1547556808466515,2.406185,-0.001920,-0.000000,0.000000,-0.000000,0.002942,1547556808595032,1547556808345720
1547556808966318,1547556808716340,2.432647,-0.003640,-0.000000,-0.000000,-0.000000,0.003354,1547556808845486,1547556808595032
1547556809215668,1547556808966318,2.396638,-0.004931,-0.000000,0.000000,-0.000000,0.002754,1547556809095029,1547556808845486
1547556809465077,1547556809215668,2.312306,-0.007880,-0.000000,0.000000,-0.000000,0.000818,1547556809344183,1547556809095029
1547556809714318,1547556809465077,2.321152,-0.003753,-0.000000,-0.000000,-0.000000,0.002479,1547556809593351,1547556809344183
1547556809965050,1547556809714318,2.317432,-0.003840,-0.000000,0.000000,0.000000,0.001463,1547556809843285,1547556809593351
1547556810217230,1547556809965050,2.347715,-0.004832,-0.000000,-0.000000,-0.000000,0.002950,1547556810094820,1547556809843285
1547556810469524,1547556810217230,2.353895,-0.005129,-0.000000,0.000000,-0.000000,0.001904,1547556810347654,1547556810094820
1547556810720570,1547556810469524,2.345907,-0.009575,-0.000000,-0.000000,0.000000,0.000781,1547556810599224,1547556810347654
1547556810971015,1547556810720570,2.342003,-0.013852,-0.000000,-0.000000,-0.000000,0.000389,1547556810849738,1547556810599224
1547556811221574,1547556810971015,2.311134,-0.016079,-0.000000,-0.000000,-0.000000,-0.004238,1547556811100229,1547556810849738
1547556811472706,1547556811221574,2.306955,-0.021609,-0.000000,-0.000000,-0.000000,-0.007874,1547556811350744,1547556811100229
1547556811722271,1547556811472706,2.309880,-0.030883,-0.000000,-0.000000,-0.000000,-0.008647,1547556811601320,1547556811350744
1547556811972025,1547556811722271,2.307490,-0.030456,-0.000000,0.000000,-0.000000,-0.011537,1547556811851255,1547556811601320
1547556812221429,1547556811972025,2.310960,-0.028590,-0.000000,0.000000,0.000000,-0.012259,1547556812100654,1547556811851255
1547556812470729,1547556812221429,2.329154,-0.029889,-0.000000,0.000000,-0.000000,-0.013290,1547556812350056,1547556812100654
1547556812719700,1547556812470729,2.292863,-0.036964,-0.000000,0.000000,0.000000,-0.013020,1547556812599311,1547556812350056
1547556812968474,1547556812719700,2.269470,-0.030421,-0.000000,0.000000,0.000000,-0.010290,1547556812847921,1547556812599311
1547556813217524,1547556812968474,2.271612,-0.025076,-0.000000,0.000000,-0.000000,-0.009310,1547556813096882,1547556812847921
1547556813467154,1547556813217524,2.269011,-0.018442,-0.000000,-0.000000,0.000000,-0.007912,1547556813345780,1547556813096882
1547556813717568,1547556813467154,2.277399,-0.018714,-0.000000,0.000000,-0.000000,-0.007085,1547556813596504,1547556813345780
1547556813967322,1547556813717568,2.274434,-0.009460,-0.000000,0.000000,0.000000,-0.002659,1547556813846481,1547556813596504
1547556814216876,1547556813967322,2.233928,-0.008646,-0.000000,-0.000000,-0.000000,-0.001933,1547556814096073,1547556813846481
1547556814466310,1547556814216876,2.242596,-0.005343,-0.000000,-0.000000,-0.000000,0.000121,1547556814345560,1547556814096073
1547556814716344,1547556814466310,2.205821,-0.012281,-0.000000,-0.000000,0.000000,-0.004825,1547556814595058,1547556814345560
1547556814966599,1547556814716344,2.094291,-0.022413,-0.000000,-0.000000,-0.000000,-0.008406,1547556814845467,1547556814595058
1547556815217156,1547556814966599,2.018143,-0.025102,-0.000000,-0.000000,-0.000000,-0.010410,1547556815095410,1547556814845467
1547556815469316,1547556815217156,1.949348,-0.026778,-0.000000,0.000000,-0.000000,-0.013010,1547556815346821,1547556815095410
1547556815721384,1547556815469316,1.833322,-0.034068,-0.000000,-0.000000,-0.000000,-0.016595,1547556815599609,1547556815346821
1547556815972658,1547556815721384,1.728663,-0.036140,-0.000000,0.000000,-0.000000,-0.016154,1547556815851013,1547556815599609
1547556816223441,1547556815972658,1.553224,-0.035463,-0.000000,0.000000,0.000000,-0.016467,1547556816102232,1547556815851013
1547556816473866,1547556816223441,1.419911,-0.032207,-0.000000,-0.000000,-0.000000,-0.018282,1547556816352372,1547556816102232
1547556816724201,1547556816473866,1.330266,-0.041320,-0.000000,0.000000,0.000000,-0.016129,1547556816603160,1547556816352372
1547556816974067,1547556816724201,1.346315,-0.027187,-0.000000,0.000000,-0.000000,-0.014558,1547556816853133,1547556816603160
1547556817223540,1547556816974067,1.274270,-0.026062,-0.000000,0.000000,-0.000000,-0.010524,1547556817102881,1547556816853133
1547556817473078,1547556817223540,1.159856,-0.013934,-0.000000,-0.000000,-0.000000,-0.002766,1547556817352059,1547556817102881
1547556817722498,1547556817473078,1.053852,-0.006697,-0.000000,0.000000,0.000000,0.002971,1547556817602000,1547556817352059
1547556817971454,1547556817722498,0.958175,0.008684,-0.000000,-0.000000,-0.000000,0.010704,1547556817850787,1547556817602000
1547556818220279,1547556817971454,0.849276,0.007333,-0.000000,-0.000000,0.000000,0.011372,1547556818099856,1547556817850787
1547556818469516,1547556818220279,0.729958,0.001635,-0.000000,0.000000,-0.000000,0.008039,1547556818348778,1547556818099856
1547556818717776,1547556818469516,0.603177,-0.002207,-0.000000,0.000000,-0.000000,0.004213,1547556818597880,1547556818348778
1547556818965915,1547556818717776,0.492059,0.006595,-0.000000,0.000000,-0.000000,0.004234,1547556818845354,1547556818597880
1547556819215305,1547556818965915,0.348051,-0.005195,-0.000000,-0.000000,-0.000000,0.002177,1547556819094407,1547556818845354
1547556819465862,1547556819215305,0.222074,0.002063,-0.000000,0.000000,-0.000000,0.002613,1547556819344223,1547556819094407
1547556819716383,1547556819465862,0.127443,-0.000896,-0.000000,-0.000000,-0.000000,-0.000081,1547556819595256,1547556819344223
1547556819966363,1547556819716383,0.046108,-0.000900,0.000000,-0.000000,0.000000,0.000833,1547556819845414,1547556819595256
1547556820216403,1547556819966363,-0.003441,-0.000959,-0.000000,-0.000000,-0.000000,0.000270,1547556820095193,1547556819845414
1547556820467241,1547556820216403,-0.004474,0.000284,-0.000000,0.000000,0.000000,-0.000079,1547556820345331,1547556820095193
1547556820719156,1547556820467241,-0.004821,-0.000474,-0.000000,-0.000000,-0.000000,-0.000044,1547556820596976,1547556820345331
1547556820971507,1547556820719156,-0.004695,-0.000345,-0.000000,0.000000,-0.000000,-0.000044,1547556820849151,1547556820596976
1547556821223031,1547556820971507,-0.004488,-0.000357,-0.000000,-0.000000,-0.000000,-0.000057,1547556821100826,1547556820849151
1547556821473876,1547556821223031,-0.004801,-0.000399,-0.000000,0.000000,-0.000000,-0.000037,1547556821352099,1547556821100826
1547556821724104,1547556821473876,-0.004649,-0.000341,-0.000000,-0.000000,-0.000000,-0.000061,1547556821602332,1547556821352099
1547556821974348,1547556821724104,-0.004553,-0.000347,-0.000000,0.000000,0.000000,-0.000027,1547556821852858,1547556821602332
1547556822224413,1547556821974348,-0.004884,-0.000314,-0.000000,0.000000,-0.000000,-0.000048,1547556822103529,1547556821852858
1547556822474392,1547556822224413,-0.004920,-0.000368,-0.000000,0.000000,-0.000000,-0.000031,1547556822353351,1547556822103529
1547556822724304,1547556822474392,-0.004763,-0.000301,-0.000000,-0.000000,0.000000,-0.000053,1547556822603307,1547556822353351
1547556822974086,1547556822724304,-0.004590,-0.000274,-0.000000,0.000000,0.000000,-0.000065,1547556822853273,1547556822603307
1547556823223515,1547556822974086,-0.004928,-0.000359,-0.000000,0.000000,-0.000000,-0.000060,1547556823102595,1547556822853273
1547556823472978,1547556823223515,-0.004881,-0.000281,-0.000000,0.000000,-0.000000,-0.000073,1547556823352293,1547556823102595
1547556823721270,1547556823472978,-0.004733,-0.000383,-0.000000,0.000000,-0.000000,-0.000047,1547556823601215,1547556823352293
1547556823970126,1547556823721270,-0.004761,-0.000372,-0.000000,-0.000000,-0.000000,-0.000057,1547556823849262,1547556823601215
1547556824220779,1547556823970126,-0.004780,-0.000367,-0.000000,-0.000000,0.000000,-0.000042,1547556824098948,1547556823849262
1547556824471653,1547556824220779,-0.004715,-0.000404,-0.000000,-0.000000,-0.000000,-0.000045,1547556824350606,1547556824098948
1547556824721769,1547556824471653,-0.004828,-0.000386,-0.000000,0.000000,-0.000000,-0.000049,1547556824600567,1547556824350606
1547556824972578,1547556824721769,-0.004871,-0.000355,-0.000000,-0.000000,0.000000,-0.000051,1547556824850815,1547556824600567
1547556825222185,1547556824972578,-0.004703,-0.000386,-0.000000,0.000000,-0.000000,-0.000056,1547556825101101,1547556824850815
1547556825472620,1547556825222185,-0.004868,-0.000392,-0.000000,-0.000000,-0.000000,-0.000051,1547556825351104,1547556825101101
1547556825724287,1547556825472620,-0.004767,-0.000375,-0.000000,0.000000,-0.000000,-0.000067,1547556825602102,1547556825351104
1547556825976351,1547556825724287,-0.004884,-0.000424,-0.000000,0.000000,-0.000000,-0.000037,1547556825854499,1547556825602102
1547556826227786,1547556825976351,-0.004882,-0.000380,-0.000000,-0.000000,-0.000000,-0.000038,1547556826105944,1547556825854499
1547556826479075,1547556826227786,-0.004741,-0.000319,-0.000000,-0.000000,-0.000000,-0.000054,1547556826357457,1547556826105944
1547556826729892,1547556826479075,-0.004752,-0.000333,-0.000000,-0.000000,-0.000000,-0.000054,1547556826608616,1547556826357457
1547556826980212,1547556826729892,-0.004959,-0.000383,-0.000000,-0.000000,-0.000000,-0.000054,1547556826858792,1547556826608616
1547556827230947,1547556826980212,-0.004799,-0.000360,-0.000000,-0.000000,-0.000000,-0.000030,1547556827109497,1547556826858792
1547556827481166,1547556827230947,-0.004723,-0.000404,-0.000000,-0.000000,-0.000000,-0.000042,1547556827360170,1547556827109497
1547556827730761,1547556827481166,-0.004784,-0.000390,-0.000000,-0.000000,0.000000,-0.000042,1547556827609891,1547556827360170
1547556827980284,1547556827730761,-0.004766,-0.000324,-0.000000,-0.000000,-0.000000,-0.000054,1547556827859388,1547556827609891
1547556828229685,1547556827980284,-0.004815,-0.000362,-0.000000,-0.000000,0.000000,-0.000055,1547556828108960,1547556827859388
1547556828478808,1547556828229685,-0.004649,-0.000397,-0.000000,0.000000,-0.000000,-0.000053,1547556828358009,1547556828108960
1547556828727624,1547556828478808,-0.004167,-0.000284,-0.000000,-0.000000,-0.000000,-0.000052,1547556828607094,1547556828358009
1547556828976141,1547556828727624,0.006630,-0.000409,-0.000000,0.000000,-0.000000,0.000080,1547556828855919,1547556828607094
1547556829225552,1547556828976141,0.010958,-0.000327,-0.000000,-0.000000,0.000000,0.000087,1547556829104235,1547556828855919
1547556829476634,1547556829225552,-0.001373,-0.000396,-0.000000,0.000000,0.000000,-0.000003,1547556829354968,1547556829104235
1547556829727094,1547556829476634,-0.004842,-0.000365,-0.000000,-0.000000,-0.000000,-0.000051,1547556829606043,1547556829354968
1547556829976856,1547556829727094,-0.004811,-0.000388,-0.000000,0.000000,0.000000,-0.000014,1547556829855613,1547556829606043
1547556830227129,1547556829976856,-0.004912,-0.000267,-0.000000,0.000000,-0.000000,-0.000059,1547556830105698,1547556829855613
1547556830477236,1547556830227129,-0.004699,-0.000327,-0.000000,-0.000000,-0.000000,-0.000063,1547556830356362,1547556830105698
1547556830726899,1547556830477236,-0.004860,-0.000312,-0.000000,0.000000,-0.000000,-0.000056,1547556830605835,1547556830356362
1547556830977565,1547556830726899,-0.004725,-0.000407,-0.000000,0.000000,-0.000000,-0.000046,1547556830855796,1547556830605835
1547556831229108,1547556830977565,-0.004791,-0.000354,-0.000000,0.000000,-0.000000,-0.000055,1547556831107159,1547556830855796
1547556831481019,1547556831229108,-0.004332,-0.000295,-0.000000,0.000000,-0.000000,-0.000012,1547556831359080,1547556831107159
1547556831732907,1547556831481019,0.001626,0.000017,-0.000000,-0.000000,-0.000000,0.000034,1547556831611010,1547556831359080
1547556831984067,1547556831732907,0.014230,-0.000365,-0.000000,-0.000000,-0.000000,0.000132,1547556831862580,1547556831611010
1547556832234918,1547556831984067,0.035117,-0.000849,-0.000000,-0.000000,-0.000000,0.000308,1547556832113363,1547556831862580
1547556832485608,1547556832234918,0.086195,-0.000769,-0.000000,0.000000,0.000000,0.000858,1547556832364299,1547556832113363
1547556832735727,1547556832485608,0.173549,-0.001580,-0.000000,-0.000000,-0.000000,0.001257,1547556832614673,1547556832364299
1547556832985443,1547556832735727,0.268446,-0.000145,-0.000000,0.000000,-0.000000,0.001778,1547556832864279,1547556832614673
1547556833235329,1547556832985443,0.359810,0.001053,-0.000000,0.000000,0.000000,0.002176,1547556833114357,1547556832864279
1547556833484399,1547556833235329,0.448719,0.004538,-0.000000,-0.000000,0.000000,0.002157,1547556833363951,1547556833114357
1547556833733830,1547556833484399,0.525818,0.003679,-0.000000,0.000000,0.000000,0.003459,1547556833612863,1547556833363951
1547556833984015,1547556833733830,0.592599,0.002183,-0.000000,-0.000000,-0.000000,0.003467,1547556833862460,1547556833612863
1547556834232261,1547556833984015,0.659602,-0.000742,-0.000000,-0.000000,-0.000000,0.004451,1547556834112885,1547556833862460
1547556834480478,1547556834232261,0.750181,0.002046,-0.000000,-0.000000,0.000000,0.004377,1547556834359380,1547556834112885
1547556834730933,1547556834480478,0.849981,0.002731,-0.000000,0.000000,-0.000000,0.004181,1547556834609593,1547556834359380
1547556834980687,1547556834730933,0.941910,-0.003865,-0.000000,0.000000,0.000000,0.001425,1547556834860229,1547556834609593
1547556835230419,1547556834980687,1.042558,0.000690,-0.000000,-0.000000,-0.000000,0.000061,1547556835109102,1547556834860229
1547556835480269,1547556835230419,1.137170,-0.007923,-0.000000,-0.000000,0.000000,-0.000313,1547556835359460,1547556835109102
1547556835729546,1547556835480269,1.225000,-0.003781,-0.000000,-0.000000,0.000000,-0.002381,1547556835608911,1547556835359460
1547556835979259,1547556835729546,1.306824,-0.005242,-0.000000,-0.000000,-0.000000,0.000647,1547556835857953,1547556835608911
1547556836229153,1547556835979259,1.393589,-0.009964,-0.000000,-0.000000,-0.000000,-0.001004,1547556836108220,1547556835857953
1547556836478623,1547556836229153,1.485175,-0.007499,0.000000,0.000000,-0.000000,-0.004217,1547556836357849,1547556836108220
1547556836728234,1547556836478623,1.556060,-0.010982,-0.000000,0.000000,0.000000,-0.001654,1547556836607196,1547556836357849
1547556836978321,1547556836728234,1.635137,-0.008358,-0.000000,0.000000,0.000000,-0.003428,1547556836857076,1547556836607196
1547556837228269,1547556836978321,1.730963,-0.008421,-0.000000,-0.000000,-0.000000,-0.003007,1547556837107323,1547556836857076
1547556837477422,1547556837228269,1.800080,-0.014466,-0.000000,-0.000000,0.000000,-0.001468,1547556837356518,1547556837107323
1547556837727630,1547556837477422,1.866629,-0.005318,-0.000000,0.000000,-0.000000,-0.002460,1547556837605978,1547556837356518
1547556837979246,1547556837727630,1.932307,-0.010274,-0.000000,0.000000,-0.000000,-0.001103,1547556837857332,1547556837605978
1547556838230827,1547556837979246,1.987903,-0.013615,-0.000000,-0.000000,0.000000,-0.001474,1547556838109143,1547556837857332
1547556838481671,1547556838230827,2.045154,-0.008791,-0.000000,-0.000000,-0.000000,-0.001541,1547556838360383,1547556838109143
1547556838732342,1547556838481671,2.066946,-0.006924,-0.000000,-0.000000,0.000000,-0.001487,1547556838610834,1547556838360383
1547556838982763,1547556838732342,2.091712,-0.004252,-0.000000,0.000000,0.000000,-0.001741,1547556838861546,1547556838610834
1547556839233255,1547556838982763,2.125729,-0.006058,-0.000000,-0.000000,-0.000000,-0.000013,1547556839111845,1547556838861546
1547556839482862,1547556839233255,2.151348,-0.004103,-0.000000,-0.000000,-0.000000,-0.001315,1547556839362183,1547556839111845
1547556839732317,1547556839482862,2.135337,0.003219,0.000000,-0.000000,-0.000000,0.000021,1547556839611383,1547556839362183
1547556839981467,1547556839732317,2.129468,0.010525,-0.000000,-0.000000,-0.000000,0.001555,1547556839861053,1547556839611383
1547556840230564,1547556839981467,2.114357,0.005985,-0.000000,0.000000,-0.000000,0.002646,1547556840109743,1547556839861053
1547556840479519,1547556840230564,2.112235,0.004304,-0.000000,0.000000,-0.000000,0.002972,1547556840359040,1547556840109743
1547556840728334,1547556840479519,2.077815,-0.002053,-0.000000,-0.000000,-0.000000,0.004406,1547556840607855,1547556840359040
1547556840976982,1547556840728334,2.065801,-0.003280,-0.000000,0.000000,0.000000,0.003931,1547556840856624,1547556840607855
1547556841226179,1547556840976982,1.989785,-0.003858,-0.000000,0.000000,-0.000000,0.005923,1547556841105079,1547556840856624
1547556841476598,1547556841226179,2.025759,-0.001309,-0.000000,0.000000,0.000000,0.009224,1547556841355320,1547556841105079
1547556841726717,1547556841476598,2.101597,0.000314,-0.000000,-0.000000,-0.000000,0.007712,1547556841605880,1547556841355320
1547556841976192,1547556841726717,2.023990,0.001586,-0.000000,-0.000000,-0.000000,0.007753,1547556841855334,1547556841605880
1547556842225877,1547556841976192,2.091543,-0.001762,-0.000000,0.000000,-0.000000,0.007418,1547556842105036,1547556841855334
1547556842475283,1547556842225877,2.181293,-0.003796,-0.000000,-0.000000,0.000000,0.008291,1547556842354355,1547556842105036
1547556842725141,1547556842475283,2.302321,-0.008550,-0.000000,0.000000,0.000000,0.006471,1547556842604082,1547556842354355
1547556842974641,1547556842725141,2.431106,-0.016101,-0.000000,-0.000000,0.000000,0.001975,1547556842853995,1547556842604082
1547556843224100,1547556842974641,2.362938,-0.016963,-0.000000,-0.000000,-0.000000,-0.000027,1547556843103293,1547556842853995
1547556843474756,1547556843224100,2.411443,-0.016236,-0.000000,0.000000,-0.000000,0.000226,1547556843352866,1547556843103293
1547556843726544,1547556843474756,2.434683,-0.015655,-0.000000,-0.000000,-0.000000,0.000310,1547556843604595,1547556843352866
1547556843977852,1547556843726544,2.425339,-0.017799,-0.000000,-0.000000,0.000000,-0.001503,1547556843856305,1547556843604595
1547556844228699,1547556843977852,2.410824,-0.024869,-0.000000,0.000000,-0.000000,-0.001992,1547556844107244,1547556843856305
1547556844479781,1547556844228699,2.387672,-0.019348,-0.000000,-0.000000,-0.000000,-0.002957,1547556844358095,1547556844107244
1547556844729409,1547556844479781,2.363836,-0.020896,-0.000000,0.000000,-0.000000,-0.002095,1547556844608063,1547556844358095
1547556844979954,1547556844729409,2.377088,-0.018962,-0.000000,-0.000000,0.000000,-0.001536,1547556844858621,1547556844608063
1547556845229106,1547556844979954,2.357026,-0.020096,-0.000000,-0.000000,-0.000000,-0.000148,1547556845108103,1547556844858621
1547556845478315,1547556845229106,2.332860,-0.019634,-0.000000,-0.000000,-0.000000,-0.000518,1547556845357256,1547556845108103
1547556845727854,1547556845478315,2.323884,-0.019994,-0.000000,0.000000,-0.000000,-0.000804,1547556845607043,1547556845357256
1547556845977037,1547556845727854,2.335450,-0.024690,-0.000000,0.000000,0.000000,-0.002077,1547556845856445,1547556845607043
1547556846226290,1547556845977037,2.299482,-0.021988,-0.000000,-0.000000,-0.000000,-0.004087,1547556846105674,1547556845856445
1547556846475034,1547556846226290,2.217288,-0.025566,-0.000000,-0.000000,-0.000000,-0.003591,1547556846354580,1547556846105674
1547556846723596,1547556846475034,2.133111,-0.026303,-0.000000,0.000000,0.000000,-0.004397,1547556846603366,1547556846354580
1547556846971961,1547556846723596,2.023378,-0.024101,-0.000000,-0.000000,0.000000,-0.006557,1547556846851610,1547556846603366
1547556847221264,1547556846971961,1.987025,-0.040642,-0.000000,0.000000,-0.000000,-0.018600,1547556847100169,1547556846851610
1547556847472179,1547556847221264,1.897292,-0.053096,-0.000000,0.000000,-0.000000,-0.026944,1547556847350399,1547556847100169
1547556847722569,1547556847472179,1.786749,-0.074433,-0.000000,0.000000,0.000000,-0.037775,1547556847601669,1547556847350399
1547556847972674,1547556847722569,1.663729,-0.090862,-0.000000,-0.000000,-0.000000,-0.050436,1547556847851418,1547556847601669
1547556848222774,1547556847972674,1.520974,-0.099658,-0.000000,0.000000,0.000000,-0.060314,1547556848101487,1547556847851418
1547556848472969,1547556848222774,1.343017,-0.105929,-0.000000,-0.000000,-0.000000,-0.070229,1547556848351710,1547556848101487
1547556848723494,1547556848472969,1.168584,-0.110582,-0.000000,-0.000000,-0.000000,-0.073814,1547556848602156,1547556848351710
1547556848974138,1547556848723494,1.030577,-0.105920,-0.000000,-0.000000,-0.000000,-0.074259,1547556848852597,1547556848602156
1547556849226222,1547556848974138,0.937872,-0.108711,-0.000000,0.000000,-0.000000,-0.080417,1547556849103707,1547556848852597
1547556849478410,1547556849226222,0.856631,-0.102324,-0.000000,0.000000,0.000000,-0.079543,1547556849356274,1547556849103707
1547556849730419,1547556849478410,0.771954,-0.095014,-0.000000,0.000000,-0.000000,-0.074697,1547556849608482,1547556849356274
1547556849981866,1547556849730419,0.671146,-0.084877,-0.000000,-0.000000,-0.000000,-0.066504,1547556849860165,1547556849608482
1547556850232635,1547556849981866,0.554551,-0.066594,-0.000000,0.000000,-0.000000,-0.054993,1547556850111314,1547556849860165
1547556850482773,1547556850232635,0.419765,-0.048383,-0.000000,-0.000000,-0.000000,-0.042441,1547556850361655,1547556850111314
1547556850733187,1547556850482773,0.293508,-0.031883,-0.000000,0.000000,-0.000000,-0.030219,1547556850611866,1547556850361655
1547556850983184,1547556850733187,0.190485,-0.020586,-0.000000,-0.000000,-0.000000,-0.020166,1547556850862255,1547556850611866
1547556851232747,1547556850983184,0.149484,-0.014038,-0.000000,-0.000000,0.000000,-0.014688,1547556851111758,1547556850862255
1547556851482289,1547556851232747,0.121493,-0.013166,-0.000000,-0.000000,0.000000,-0.011890,1547556851361440,1547556851111758
1547556851731781,1547556851482289,0.076249,-0.005564,-0.000000,-0.000000,0.000000,-0.008105,1547556851610989,1547556851361440
1547556851980969,1547556851731781,0.044972,-0.001849,-0.000000,-0.000000,0.000000,-0.005034,1547556851860347,1547556851610989
1547556852229847,1547556851980969,0.042952,-0.006714,-0.000000,-0.000000,0.000000,-0.004044,1547556852109195,1547556851860347
1547556852478719,1547556852229847,0.044622,-0.004351,-0.000000,0.000000,-0.000000,-0.004952,1547556852358280,1547556852109195
1547556852728049,1547556852478719,0.063564,-0.007738,-0.000000,0.000000,0.000000,-0.005596,1547556852606885,1547556852358280
1547556852979048,1547556852728049,0.040906,-0.001118,-0.000000,-0.000000,0.000000,-0.005360,1547556852857174,1547556852606885
1547556853229966,1547556852979048,0.058058,-0.007281,-0.000000,0.000000,-0.000000,-0.004147,1547556853109038,1547556852857174
1547556853479833,1547556853229966,0.016199,0.001203,-0.000000,0.000000,0.000000,-0.002722,1547556853358761,1547556853109038
1547556853729932,1547556853479833,0.017138,-0.003551,-0.000000,0.000000,-0.000000,-0.001641,1547556853608671,1547556853358761
1547556853980337,1547556853729932,0.016242,-0.004128,-0.000000,-0.000000,0.000000,-0.000868,1547556853859233,1547556853608671
1547556854230305,1547556853980337,0.005943,0.001261,-0.000000,0.000000,-0.000000,-0.001272,1547556854109149,1547556853859233
1547556854481101,1547556854230305,0.029937,-0.002769,-0.000000,0.000000,-0.000000,-0.003456,1547556854359401,1547556854109149
1547556854732844,1547556854481101,0.069525,-0.008244,-0.000000,-0.000000,0.000000,-0.006366,1547556854610730,1547556854359401
1547556854984904,1547556854732844,0.082678,-0.003729,-0.000000,-0.000000,-0.000000,-0.009465,1547556854862942,1547556854610730
1547556855236340,1547556854984904,0.123333,-0.011602,-0.000000,-0.000000,0.000000,-0.012490,1547556855114712,1547556854862942
1547556855487171,1547556855236340,0.166222,-0.023395,-0.000000,0.000000,-0.000000,-0.015017,1547556855365873,1547556855114712
1547556855738024,1547556855487171,0.176894,-0.018047,0.000000,0.000000,-0.000000,-0.019384,1547556855616498,1547556855365873
1547556855989021,1547556855738024,0.248356,-0.026418,-0.000000,-0.000000,-0.000000,-0.026027,1547556855867529,1547556855616498
1547556856239402,1547556855989021,0.315225,-0.040464,-0.000000,0.000000,-0.000000,-0.036121,1547556856118473,1547556855867529
1547556856489408,1547556856239402,0.411010,-0.057836,-0.000000,0.000000,-0.000000,-0.051485,1547556856368194,1547556856118473
1547556856739477,1547556856489408,0.514371,-0.079202,-0.000000,-0.000000,-0.000000,-0.067647,1547556856618607,1547556856368194
1547556856988707,1547556856739477,0.596755,-0.097240,-0.000000,0.000000,-0.000000,-0.086985,1547556856868135,1547556856618607
1547556857237387,1547556856988707,0.677051,-0.126866,-0.000000,0.000000,0.000000,-0.105514,1547556857117022,1547556856868135
1547556857486321,1547556857237387,0.802966,-0.152579,-0.000000,0.000000,-0.000000,-0.126888,1547556857365537,1547556857117022
1547556857734545,1547556857486321,0.888085,-0.185744,-0.000000,-0.000000,0.000000,-0.141430,1547556857613761,1547556857365537
1547556857984737,1547556857734545,0.973922,-0.215743,-0.000000,0.000000,-0.000000,-0.158171,1547556857863330,1547556857613761
1547556858235564,1547556857984737,1.087372,-0.230842,-0.000000,0.000000,0.000000,-0.171991,1547556858114005,1547556857863330
1547556858486520,1547556858235564,1.175422,-0.256632,-0.000000,-0.000000,-0.000000,-0.179227,1547556858364905,1547556858114005
1547556858737196,1547556858486520,1.284390,-0.255459,-0.000000,-0.000000,0.000000,-0.168493,1547556858615793,1547556858364905
1547556858987732,1547556858737196,1.401446,-0.199180,-0.000000,-0.000000,-0.000000,-0.125681,1547556858866245,1547556858615793
1547556859238080,1547556858987732,1.532364,-0.133663,-0.000000,0.000000,0.000000,-0.080258,1547556859116975,1547556858866245
1547556859487651,1547556859238080,1.616601,-0.084286,-0.000000,0.000000,0.000000,-0.048173,1547556859366932,1547556859116975
1547556859737507,1547556859487651,1.700498,-0.055547,0.000000,-0.000000,-0.000000,-0.031592,1547556859616381,1547556859366932
1547556859987640,1547556859737507,1.804422,-0.039431,-0.000000,-0.000000,0.000000,-0.022470,1547556859866458,1547556859616381
1547556860238292,1547556859987640,1.836929,-0.027618,-0.000000,0.000000,-0.000000,-0.012340,1547556860116635,1547556859866458
1547556860490236,1547556860238292,1.905781,-0.018625,-0.000000,0.000000,0.000000,-0.006926,1547556860368102,1547556860116635
1547556860741649,1547556860490236,1.979013,-0.017102,-0.000000,-0.000000,-0.000000,-0.008195,1547556860620343,1547556860368102
1547556860992277,1547556860741649,2.070105,-0.037109,-0.000000,0.000000,-0.000000,-0.011830,1547556860870810,1547556860620343
1547556861243133,1547556860992277,2.116657,-0.033523,-0.000000,-0.000000,-0.000000,-0.012930,1547556861121703,1547556860870810
1547556861493430,1547556861243133,2.169606,-0.035228,-0.000000,-0.000000,-0.000000,-0.011852,1547556861372277,1547556861121703
1547556861742979,1547556861493430,2.213924,-0.028396,-0.000000,0.000000,0.000000,-0.010144,1547556861622526,1547556861372277
1547556861992165,1547556861742979,2.260521,-0.026429,-0.000000,0.000000,0.000000,-0.008573,1547556861871064,1547556861622526
1547556862241774,1547556861992165,2.312467,-0.028325,-0.000000,-0.000000,0.000000,-0.006861,1547556862121057,1547556861871064
1547556862491016,1547556862241774,2.329736,-0.031308,-0.000000,-0.000000,-0.000000,-0.006207,1547556862370247,1547556862121057
1547556862740150,1547556862491016,2.345368,-0.021075,-0.000000,0.000000,-0.000000,-0.003162,1547556862619633,1547556862370247
1547556862988608,1547556862740150,2.363311,-0.029126,-0.000000,-0.000000,-0.000000,-0.002490,1547556862868403,1547556862619633
1547556863236951,1547556862988608,2.436703,-0.015740,-0.000000,-0.000000,-0.000000,-0.001597,1547556863116453,1547556862868403
1547556863486411,1547556863236951,2.425819,-0.016542,-0.000000,-0.000000,0.000000,-0.003163,1547556863365241,1547556863116453
1547556863737237,1547556863486411,2.447101,-0.023898,-0.000000,0.000000,-0.000000,-0.002289,1547556863615420,1547556863365241
1547556863987471,1547556863737237,2.472099,-0.016473,-0.000000,-0.000000,-0.000000,-0.002579,1547556863866634,1547556863615420
1547556864237108,1547556863987471,2.540523,-0.018265,-0.000000,0.000000,-0.000000,-0.003006,1547556864116085,1547556863866634
1547556864486744,1547556864237108,2.497152,-0.018711,-0.000000,-0.000000,0.000000,-0.001932,1547556864365823,1547556864116085
1547556864737101,1547556864486744,2.523767,-0.008874,-0.000000,-0.000000,-0.000000,-0.002481,1547556864615644,1547556864365823
1547556864987486,1547556864737101,2.509841,-0.012235,-0.000000,-0.000000,0.000000,-0.001510,1547556864866358,1547556864615644
1547556865236606,1547556864987486,2.502905,-0.016449,-0.000000,-0.000000,-0.000000,-0.000071,1547556865116330,1547556864866358
1547556865486127,1547556865236606,2.523881,-0.014849,-0.000000,-0.000000,-0.000000,-0.000848,1547556865364738,1547556865116330
1547556865737478,1547556865486127,2.516226,-0.005517,-0.000000,0.000000,0.000000,0.000088,1547556865615518,1547556865364738
1547556865989332,1547556865737478,2.528626,-0.003001,-0.000000,0.000000,-0.000000,0.000008,1547556865867348,1547556865615518
1547556866240713,1547556865989332,2.469125,-0.009191,-0.000000,0.000000,-0.000000,0.000295,1547556866119054,1547556865867348
1547556866491494,1547556866240713,2.502075,-0.005954,-0.000000,0.000000,-0.000000,0.000369,1547556866370370,1547556866119054
1547556866741738,1547556866491494,2.511179,-0.003698,-0.000000,0.000000,-0.000000,-0.000331,1547556866620404,1547556866370370
1547556866992460,1547556866741738,2.504908,-0.010705,-0.000000,0.000000,0.000000,-0.004764,1547556866871010,1547556866620404
1547556867242660,1547556866992460,2.486631,-0.012539,-0.000000,-0.000000,0.000000,-0.003306,1547556867121673,1547556866871010
1547556867491984,1547556867242660,2.460690,-0.013207,-0.000000,0.000000,-0.000000,-0.002863,1547556867371672,1547556867121673
1547556867741346,1547556867491984,2.317586,-0.009143,-0.000000,0.000000,-0.000000,-0.001967,1547556867620266,1547556867371672
1547556867990647,1547556867741346,2.127187,-0.004810,-0.000000,0.000000,-0.000000,-0.001672,1547556867870239,1547556867620266
1547556868239341,1547556867990647,1.968566,-0.005782,-0.000000,0.000000,-0.000000,-0.000899,1547556868118840,1547556867870239
1547556868488336,1547556868239341,1.880537,-0.007037,-0.000000,0.000000,0.000000,-0.000664,1547556868367545,1547556868118840
1547556868737077,1547556868488336,1.682304,0.002118,-0.000000,0.000000,-0.000000,-0.001908,1547556868616943,1547556868367545
1547556868985467,1547556868737077,1.509597,-0.000842,-0.000000,-0.000000,0.000000,-0.002119,1547556868864940,1547556868616943
1547556869235600,1547556868985467,1.363268,-0.005772,-0.000000,0.000000,-0.000000,-0.001090,1547556869113938,1547556868864940
1547556869486504,1547556869235600,1.208105,-0.004787,-0.000000,0.000000,-0.000000,-0.000626,1547556869365182,1547556869113938
1547556869736511,1547556869486504,1.044904,-0.004296,-0.000000,0.000000,-0.000000,-0.001126,1547556869615698,1547556869365182
1547556869986526,1547556869736511,0.918115,-0.002643,-0.000000,0.000000,-0.000000,-0.000381,1547556869865330,1547556869615698
1547556870236658,1547556869986526,0.795078,-0.003010,-0.000000,0.000000,0.000000,-0.001346,1547556870115497,1547556869865330
1547556870487096,1547556870236658,0.682068,-0.003429,-0.000000,0.000000,0.000000,-0.001581,1547556870365475,1547556870115497
1547556870738724,1547556870487096,0.570762,-0.001733,-0.000000,-0.000000,0.000000,-0.001678,1547556870616594,1547556870365475
1547556870990934,1547556870738724,0.454013,-0.002448,-0.000000,0.000000,0.000000,-0.001619,1547556870868822,1547556870616594
1547556871243155,1547556870990934,0.320031,-0.001223,-0.000000,0.000000,0.000000,-0.000651,1547556871121070,1547556870868822
1547556871494486,1547556871243155,0.205717,-0.002143,-0.000000,0.000000,-0.000000,-0.000273,1547556871373001,1547556871121070
1547556871744698,1547556871494486,0.117169,-0.000992,-0.000000,0.000000,0.000000,-0.000212,1547556871624009,1547556871373001
1547556871993956,1547556871744698,0.020492,0.000313,-0.000000,0.000000,-0.000000,-0.000142,1547556871873129,1547556871624009
1547556872243712,1547556871993956,0.007414,-0.000622,-0.000000,-0.000000,-0.000000,0.000064,1547556872122757,1547556871873129
1547556872492598,1547556872243712,0.004337,0.000094,-0.000000,0.000000,0.000000,-0.000082,1547556872372322,1547556872122757
1547556872741118,1547556872492598,0.000961,-0.000060,-0.000000,0.000000,-0.000000,-0.000004,1547556872620713,1547556872372322
1547556872989389,1547556872741118,0.000112,-0.000428,-0.000000,-0.000000,0.000000,0.000075,1547556872869160,1547556872620713
1547556873237440,1547556872989389,-0.000809,-0.000359,-0.000000,0.000000,0.000000,0.000082,1547556873117399,1547556872869160
1547556873484993,1547556873237440,-0.000031,0.000194,-0.000000,-0.000000,0.000000,-0.000020,1547556873365153,1547556873117399
1547556873733045,1547556873484993,0.000105,0.000296,-0.000000,-0.000000,-0.000000,-0.000022,1547556873612652,1547556873365153
1547556873980949,1547556873733045,0.000047,0.000312,-0.000000,0.000000,-0.000000,-0.000020,1547556873860091,1547556873612652
1547556874232800,1547556873980949,-0.000067,0.000082,0.000000,0.000000,-0.000000,-0.000016,1547556874109597,1547556873860091
1547556874484400,1547556874232800,0.000488,-0.000565,-0.000000,-0.000000,-0.000000,0.000075,1547556874362423,1547556874109597
1547556874735818,1547556874484400,-0.000422,0.000005,-0.000000,0.000000,-0.000000,-0.000019,1547556874614202,1547556874362423
1547556874987195,1547556874735818,0.000054,0.000089,-0.000000,-0.000000,-0.000000,-0.000027,1547556874865289,1547556874614202
1547556875238799,1547556874987195,0.000338,-0.000013,-0.000000,-0.000000,-0.000000,0.000008,1547556875116895,1547556874865289
1547556875490039,1547556875238799,0.000362,0.000029,-0.000000,0.000000,-0.000000,0.000003,1547556875368559,1547556875116895
1547556875742060,1547556875490039,0.000284,0.000035,0.000000,-0.000000,-0.000000,-0.000020,1547556875619584,1547556875368559
1547556875995513,1547556875742060,0.000188,0.000006,-0.000000,-0.000000,0.000000,-0.000002,1547556875872495,1547556875619584
1547556876248154,1547556875995513,0.000301,0.000063,-0.000000,0.000000,-0.000000,-0.000005,1547556876126513,1547556875872495
1547556876498851,1547556876248154,-0.000470,-0.000041,-0.000000,0.000000,-0.000000,0.000019,1547556876377889,1547556876126513
1547556876747936,1547556876498851,-0.000874,-0.000062,-0.000000,-0.000000,-0.000000,0.000017,1547556876627566,1547556876377889
1547556876995776,1547556876747936,0.000526,0.000012,-0.000000,-0.000000,0.000000,0.000019,1547556876876091,1547556876627566
1547556877244234,1547556876995776,-0.000004,-0.000103,-0.000000,0.000000,-0.000000,0.000005,1547556877123208,1547556876876091
1547556877491075,1547556877244234,-0.000096,-0.000155,-0.000000,-0.000000,-0.000000,0.000006,1547556877371216,1547556877123208
1547556877738605,1547556877491075,0.000012,-0.000072,-0.000000,-0.000000,0.000000,-0.000004,1547556877618816,1547556877371216
